{
    "status": "ok",
    "page": 41,
    "data": [
        {
            "id": "KUOX",
            "name": "UNIVERSITY-OXFORD",
            "country": "United States of America",
            "lat": 34.38433333333333,
            "lon": -89.53680555555556
        },
        {
            "id": "KPIB",
            "name": "HATTIESBURG-LAUREL RGNL",
            "country": "United States of America",
            "lat": 31.467138888888886,
            "lon": -89.33705555555555
        },
        {
            "id": "KTUP",
            "name": "TUPELO RGNL",
            "country": "United States of America",
            "lat": 34.269,
            "lon": -88.76988888888889
        },
        {
            "id": "KBIL",
            "name": "BILLINGS LOGAN INTL",
            "country": "United States of America",
            "lat": 45.80766111111111,
            "lon": -108.542875
        },
        {
            "id": "KBZN",
            "name": "BOZEMAN YELLOWSTONE INTL",
            "country": "United States of America",
            "lat": 45.777569444444445,
            "lon": -111.15201944444445
        },
        {
            "id": "KBTM",
            "name": "BERT MOONEY",
            "country": "United States of America",
            "lat": 45.954794444444445,
            "lon": -112.49746111111111
        },
        {
            "id": "KCTB",
            "name": "CUT BANK INTL",
            "country": "United States of America",
            "lat": 48.60835277777778,
            "lon": -112.37615
        },
        {
            "id": "KDLN",
            "name": "DILLON",
            "country": "United States of America",
            "lat": 45.255361111111114,
            "lon": -112.55250555555556
        },
        {
            "id": "KGGW",
            "name": "WOKAL FIELD/GLASGOW INTL",
            "country": "United States of America",
            "lat": 48.21244444444445,
            "lon": -106.61480555555555
        },
        {
            "id": "KGDV",
            "name": "DAWSON COMMUNITY",
            "country": "United States of America",
            "lat": 47.13872222222222,
            "lon": -104.80722222222222
        }
    ]
}