{
    "status": "ok",
    "page": 17,
    "data": [
        {
            "id": "KPIA",
            "name": "GENERAL DOWNING-PEORIA INTL",
            "country": "United States of America",
            "lat": 40.66419444444444,
            "lon": -89.69325
        },
        {
            "id": "KVYS",
            "name": "ILLINOIS VALLEY RGNL-WALTER A DUNCAN FIELD",
            "country": "United States of America",
            "lat": 41.350147222222226,
            "lon": -89.15294444444444
        },
        {
            "id": "KUIN",
            "name": "QUINCY RGNL-BALDWIN FIELD",
            "country": "United States of America",
            "lat": 39.943016666666665,
            "lon": -91.19446111111111
        },
        {
            "id": "KRFD",
            "name": "CHICAGO/ROCKFORD INTL",
            "country": "United States of America",
            "lat": 42.195361111111104,
            "lon": -89.09722222222221
        },
        {
            "id": "KLOT",
            "name": "LEWIS UNIVERSITY",
            "country": "United States of America",
            "lat": 41.608111111111114,
            "lon": -88.09619444444444
        },
        {
            "id": "KSLO",
            "name": "SALEM-LECKRONE",
            "country": "United States of America",
            "lat": 38.64287222222222,
            "lon": -88.96418611111112
        },
        {
            "id": "KBLV",
            "name": "SCOTT AFB/MIDAMERICA",
            "country": "United States of America",
            "lat": 38.54516666666667,
            "lon": -89.83519444444444
        },
        {
            "id": "KSAR",
            "name": "SPARTA COMMUNITY-HUNTER FIELD",
            "country": "United States of America",
            "lat": 38.14886111111111,
            "lon": -89.69850277777778
        },
        {
            "id": "KSPI",
            "name": "ABRAHAM LINCOLN CAPITAL",
            "country": "United States of America",
            "lat": 39.84422222222222,
            "lon": -89.67808333333333
        },
        {
            "id": "KSQI",
            "name": "WHITESIDE CO ARPT-JOS H BITTORF FLD",
            "country": "United States of America",
            "lat": 41.74283333333334,
            "lon": -89.67627777777778
        }
    ]
}