{
    "status": "ok",
    "page": 255,
    "data": [
        {
            "id": "DRRT",
            "name": "TAHOUA",
            "country": "Niger",
            "lat": 14.878111111111112,
            "lon": 5.270166666666666
        },
        {
            "id": "DRZA",
            "name": "AGADES SUD",
            "country": "Niger",
            "lat": 16.962305555555556,
            "lon": 7.990388888888889
        },
        {
            "id": "DRZR",
            "name": "ZINDER",
            "country": "Niger",
            "lat": 13.783972222222221,
            "lon": 8.990402777777778
        },
        {
            "id": "DTKA",
            "name": "TABARKA-AIN DRAHAM INTERNATIONAL AIRPORT",
            "country": "Tunisia",
            "lat": 36.980000000000004,
            "lon": 8.876944444444446
        },
        {
            "id": "DTMB",
            "name": "MONASTIR/HABIB BOURGUIBA",
            "country": "Tunisia",
            "lat": 35.75805555555556,
            "lon": 10.754722222222222
        },
        {
            "id": "DTNH",
            "name": "ENFIDHA-HAMMAMET INTERNATIONAL AIRPORT",
            "country": "Tunisia",
            "lat": 36.075833333333335,
            "lon": 10.438611111111111
        },
        {
            "id": "DTTA",
            "name": "TUNIS/CARTHAGE",
            "country": "Tunisia",
            "lat": 36.85111111111111,
            "lon": 10.226944444444445
        },
        {
            "id": "DTTB",
            "name": "BIZERTE/SIDI AHMED",
            "country": "Tunisia",
            "lat": 37.2455556,
            "lon": 9.7913889
        },
        {
            "id": "DTTD",
            "name": "REMADA",
            "country": "Tunisia",
            "lat": 32.3061111,
            "lon": 10.3822222
        },
        {
            "id": "DTTF",
            "name": "GAFSA/KSAR",
            "country": "Tunisia",
            "lat": 34.41555555555556,
            "lon": 8.813611111111111
        }
    ]
}