{
    "status": "ok",
    "page": 97,
    "data": [
        {
            "id": "KSAA",
            "name": "SHIVELY FIELD",
            "country": "United States of America",
            "lat": 41.443527777777774,
            "lon": -106.82752777777777
        },
        {
            "id": "KSHR",
            "name": "SHERIDAN COUNTY",
            "country": "United States of America",
            "lat": 44.769194444444445,
            "lon": -106.98027777777779
        },
        {
            "id": "KTOR",
            "name": "TORRINGTON MUNI",
            "country": "United States of America",
            "lat": 42.064527777777776,
            "lon": -104.15269444444445
        },
        {
            "id": "KWRL",
            "name": "WORLAND MUNI",
            "country": "United States of America",
            "lat": 43.96288888888889,
            "lon": -107.95052777777778
        },
        {
            "id": "KDCA",
            "name": "RONALD REAGAN WASHINGTON NATIONAL",
            "country": "United States of America",
            "lat": 38.851444444444446,
            "lon": -77.03772222222221
        },
        {
            "id": "CYYC",
            "name": "CALGARY INTL",
            "country": "CAN",
            "lat": "Canada",
            "lon": 51.12261388888889
        },
        {
            "id": "CYBW",
            "name": "CALGARY/SPRINGBANK",
            "country": "CAN",
            "lat": "Canada",
            "lon": 51.105313888888894
        },
        {
            "id": "CYOD",
            "name": "COLD LAKE/GROUP CAPTAIN R.W. MCNAIR",
            "country": "CAN",
            "lat": "Canada",
            "lon": 54.405
        },
        {
            "id": "CYEG",
            "name": "EDMONTON INTL",
            "country": "CAN",
            "lat": "Canada",
            "lon": 53.30988333333333
        },
        {
            "id": "CYXD",
            "name": "EDMONTON CITY CENTRE (BLATCHFORD FIELD)",
            "country": "CAN",
            "lat": "Canada",
            "lon": 53.5725
        }
    ]
}