{
    "status": "ok",
    "page": 85,
    "data": [
        {
            "id": "KDAN",
            "name": "DANVILLE RGNL",
            "country": "United States of America",
            "lat": 36.572475000000004,
            "lon": -79.3362361111111
        },
        {
            "id": "KPSK",
            "name": "NEW RIVER VALLEY",
            "country": "United States of America",
            "lat": 37.137344444444444,
            "lon": -80.67848055555557
        },
        {
            "id": "KDAA",
            "name": "DAVISON AAF",
            "country": "United States of America",
            "lat": 38.71528055555556,
            "lon": -77.18139722222223
        },
        {
            "id": "KFKN",
            "name": "FRANKLIN MUNI-JOHN BEVERLY ROSE",
            "country": "United States of America",
            "lat": 36.70030555555556,
            "lon": -76.9021388888889
        },
        {
            "id": "KFAF",
            "name": "FELKER AAF",
            "country": "United States of America",
            "lat": 37.13245555555556,
            "lon": -76.60926111111111
        },
        {
            "id": "KHSP",
            "name": "INGALLS FIELD",
            "country": "United States of America",
            "lat": 37.95144444444445,
            "lon": -79.83389444444444
        },
        {
            "id": "KLFI",
            "name": "LANGLEY AFB",
            "country": "United States of America",
            "lat": 37.082886111111115,
            "lon": -76.36053888888888
        },
        {
            "id": "KLYH",
            "name": "LYNCHBURG RGNL/PRESTON GLENN FLD",
            "country": "United States of America",
            "lat": 37.325388888888895,
            "lon": -79.20122222222223
        },
        {
            "id": "KMFV",
            "name": "ACCOMACK COUNTY",
            "country": "United States of America",
            "lat": 37.64688888888889,
            "lon": -75.76105555555556
        },
        {
            "id": "KPHF",
            "name": "NEWPORT NEWS/WILLIAMSBURG INTL",
            "country": "United States of America",
            "lat": 37.13188888888889,
            "lon": -76.49297222222222
        }
    ]
}