{
    "status": "ok",
    "page": 11,
    "data": [
        {
            "id": "KDBQ",
            "name": "DUBUQUE RGNL",
            "country": "United States of America",
            "lat": 42.402,
            "lon": -90.70947222222223
        },
        {
            "id": "KEST",
            "name": "ESTHERVILLE MUNI",
            "country": "United States of America",
            "lat": 43.407180555555556,
            "lon": -94.74644444444445
        },
        {
            "id": "KFFL",
            "name": "FAIRFIELD MUNI",
            "country": "United States of America",
            "lat": 41.05571944444444,
            "lon": -91.98081944444445
        },
        {
            "id": "KFXY",
            "name": "FOREST CITY MUNI",
            "country": "United States of America",
            "lat": 43.23475555555556,
            "lon": -93.62410277777776
        },
        {
            "id": "KFOD",
            "name": "FORT DODGE RGNL",
            "country": "United States of America",
            "lat": 42.55119444444444,
            "lon": -94.19183333333334
        },
        {
            "id": "KIOW",
            "name": "IOWA CITY MUNI",
            "country": "United States of America",
            "lat": 41.63977777777778,
            "lon": -91.54813888888889
        },
        {
            "id": "KIFA",
            "name": "IOWA FALLS MUNI",
            "country": "United States of America",
            "lat": 42.471358333333335,
            "lon": -93.27071944444444
        },
        {
            "id": "KEOK",
            "name": "KEOKUK MUNI",
            "country": "United States of America",
            "lat": 40.45990833333334,
            "lon": -91.4285
        },
        {
            "id": "KLRJ",
            "name": "LE MARS MUNI",
            "country": "United States of America",
            "lat": 42.777944444444444,
            "lon": -96.19369444444445
        },
        {
            "id": "KMIW",
            "name": "MARSHALLTOWN MUNI",
            "country": "United States of America",
            "lat": 42.11275,
            "lon": -92.91777777777779
        }
    ]
}