{
    "status": "ok",
    "page": 364,
    "data": [
        {
            "id": "KSAC",
            "name": "SACRAMENTO EXECUTIVE",
            "country": "United States of America",
            "lat": 38.51252777777778,
            "lon": -121.49347222222222
        },
        {
            "id": "KSMF",
            "name": "SACRAMENTO INTL",
            "country": "United States of America",
            "lat": 38.69544444444444,
            "lon": -121.59077777777777
        },
        {
            "id": "KSNS",
            "name": "SALINAS MUNI",
            "country": "United States of America",
            "lat": 36.66278611111111,
            "lon": -121.60636388888888
        },
        {
            "id": "KSBD",
            "name": "SAN BERNARDINO INTL",
            "country": "United States of America",
            "lat": 34.09536111111111,
            "lon": -117.23488888888889
        },
        {
            "id": "KSQL",
            "name": "SAN CARLOS",
            "country": "United States of America",
            "lat": 37.511852777777776,
            "lon": -122.24952222222223
        },
        {
            "id": "KSAN",
            "name": "SAN DIEGO INTL",
            "country": "United States of America",
            "lat": 32.733555555555554,
            "lon": -117.18966666666667
        },
        {
            "id": "KMYF",
            "name": "MONTGOMERY FIELD",
            "country": "United States of America",
            "lat": 32.81572222222222,
            "lon": -117.13958333333333
        },
        {
            "id": "KSDM",
            "name": "BROWN FIELD MUNI",
            "country": "United States of America",
            "lat": 32.57235,
            "lon": -116.98211388888889
        },
        {
            "id": "KSEE",
            "name": "GILLESPIE FIELD",
            "country": "United States of America",
            "lat": 32.82622222222223,
            "lon": -116.97244444444445
        },
        {
            "id": "KSFO",
            "name": "SAN FRANCISCO INTL",
            "country": "United States of America",
            "lat": 37.618805555555554,
            "lon": -122.37541666666667
        }
    ]
}