{
    "status": "ok",
    "page": 25,
    "data": [
        {
            "id": "KMLU",
            "name": "MONROE RGNL",
            "country": "United States of America",
            "lat": 32.51086111111111,
            "lon": -92.03766666666667
        },
        {
            "id": "KNEW",
            "name": "LAKEFRONT",
            "country": "United States of America",
            "lat": 30.042416666666668,
            "lon": -90.02826666666667
        },
        {
            "id": "KNBG",
            "name": "NEW ORLEANS NAS JRB/ALVIN CALLENDER FIELD",
            "country": "United States of America",
            "lat": 29.82721388888889,
            "lon": -90.02658888888888
        },
        {
            "id": "KMSY",
            "name": "LOUIS ARMSTRONG NEW ORLEANS INTL",
            "country": "United States of America",
            "lat": 29.993277777777777,
            "lon": -90.25902777777777
        },
        {
            "id": "KOPL",
            "name": "ST LANDRY PARISH-AHART FIELD",
            "country": "United States of America",
            "lat": 30.55838888888889,
            "lon": -92.09938888888888
        },
        {
            "id": "KRSN",
            "name": "RUSTON RGNL",
            "country": "United States of America",
            "lat": 32.5146,
            "lon": -92.58844166666667
        },
        {
            "id": "KPTN",
            "name": "HARRY P WILLIAMS MEMORIAL",
            "country": "United States of America",
            "lat": 29.709544444444443,
            "lon": -91.33897777777777
        },
        {
            "id": "KDTN",
            "name": "SHREVEPORT DOWNTOWN",
            "country": "United States of America",
            "lat": 32.54021944444444,
            "lon": -93.74502222222222
        },
        {
            "id": "KSHV",
            "name": "SHREVEPORT RGNL",
            "country": "United States of America",
            "lat": 32.44661111111111,
            "lon": -93.8256111111111
        },
        {
            "id": "KBED",
            "name": "LAURENCE G HANSCOM FLD",
            "country": "United States of America",
            "lat": 42.469944444444444,
            "lon": -71.289
        }
    ]
}