{
    "status": "ok",
    "page": 276,
    "data": [
        {
            "id": "OESH",
            "name": "SHARURAH",
            "country": "Saudi Arabia",
            "lat": 17.466944444444444,
            "lon": 47.12138888888889
        },
        {
            "id": "OESK",
            "name": "AL JOUF",
            "country": "Saudi Arabia",
            "lat": 29.78527777777778,
            "lon": 40.099722222222226
        },
        {
            "id": "OETB",
            "name": "TABUK/PRINCE SULTAN BIN ABDULAZIZ",
            "country": "Saudi Arabia",
            "lat": 28.373055555555556,
            "lon": 36.62138888888889
        },
        {
            "id": "OETF",
            "name": "TAIF",
            "country": "Saudi Arabia",
            "lat": 21.483333333333334,
            "lon": 40.544444444444444
        },
        {
            "id": "OETR",
            "name": "TURAIF",
            "country": "Saudi Arabia",
            "lat": 31.692777777777778,
            "lon": 38.73111111111111
        },
        {
            "id": "OEWD",
            "name": "WADI AL DAWASIR",
            "country": "Saudi Arabia",
            "lat": 20.504166666666666,
            "lon": 45.19888888888889
        },
        {
            "id": "OEWJ",
            "name": "WEJH",
            "country": "Saudi Arabia",
            "lat": 26.198611111111113,
            "lon": 36.476111111111116
        },
        {
            "id": "OEYN",
            "name": "YENBO/PRINCE ABDULMOHSIN BIN ABDULAZIZ",
            "country": "Saudi Arabia",
            "lat": 24.144166666666667,
            "lon": 38.06361111111111
        },
        {
            "id": "OIAA",
            "name": "ABADAN",
            "country": "Iran (Islamic Republic of)",
            "lat": 30.371111111111112,
            "lon": 48.22833333333333
        },
        {
            "id": "OIAG",
            "name": "AGHAJARI",
            "country": "Iran (Islamic Republic of)",
            "lat": 30.75,
            "lon": 49.68333333333333
        }
    ]
}