{
    "status": "ok",
    "page": 92,
    "data": [
        {
            "id": "KRRL",
            "name": "MERRILL MUNI",
            "country": "United States of America",
            "lat": 45.19891666666666,
            "lon": -89.71286111111111
        },
        {
            "id": "KMKE",
            "name": "GENERAL MITCHELL INTL",
            "country": "United States of America",
            "lat": 42.94694444444444,
            "lon": -87.89705555555557
        },
        {
            "id": "KMWC",
            "name": "LAWRENCE J TIMMERMAN",
            "country": "United States of America",
            "lat": 43.11038888888889,
            "lon": -88.03441666666666
        },
        {
            "id": "KARV",
            "name": "LAKELAND/NOBLE F. LEE MEMORIAL FIELD",
            "country": "United States of America",
            "lat": 45.92791666666666,
            "lon": -89.73094444444445
        },
        {
            "id": "KCWA",
            "name": "CENTRAL WISCONSIN",
            "country": "United States of America",
            "lat": 44.77762222222222,
            "lon": -89.66677777777778
        },
        {
            "id": "KRNH",
            "name": "NEW RICHMOND RGNL",
            "country": "United States of America",
            "lat": 45.147777777777776,
            "lon": -92.53916666666666
        },
        {
            "id": "KOEO",
            "name": "L O SIMENSTAD MUNI",
            "country": "United States of America",
            "lat": 45.30934166666666,
            "lon": -92.69012222222223
        },
        {
            "id": "KOSH",
            "name": "WITTMAN RGNL",
            "country": "United States of America",
            "lat": 43.98448888888889,
            "lon": -88.55693333333333
        },
        {
            "id": "KRAC",
            "name": "JOHN H BATTEN",
            "country": "United States of America",
            "lat": 42.76116666666667,
            "lon": -87.81391666666666
        },
        {
            "id": "KRHI",
            "name": "RHINELANDER-ONEIDA COUNTY",
            "country": "United States of America",
            "lat": 45.630897222222224,
            "lon": -89.46662777777777
        }
    ]
}