{
    "status": "ok",
    "page": 9,
    "data": [
        {
            "id": "PHNY",
            "name": "LANAI",
            "country": "United States of America",
            "lat": 20.785611111111113,
            "lon": -156.95141666666666
        },
        {
            "id": "PHLI",
            "name": "LIHUE",
            "country": "United States of America",
            "lat": 21.975980555555555,
            "lon": -159.33895555555557
        },
        {
            "id": "PHMK",
            "name": "MOLOKAI",
            "country": "United States of America",
            "lat": 21.152833333333334,
            "lon": -157.09633333333335
        },
        {
            "id": "PHHI",
            "name": "WHEELER AAF",
            "country": "United States of America",
            "lat": 21.4835,
            "lon": -158.03966666666668
        },
        {
            "id": "PMDY",
            "name": "HENDERSON FIELD",
            "country": "United States of America",
            "lat": 28.201483333333332,
            "lon": -177.38130833333335
        },
        {
            "id": "KAMW",
            "name": "AMES MUNI",
            "country": "United States of America",
            "lat": 41.99205555555556,
            "lon": -93.62183333333333
        },
        {
            "id": "KAIO",
            "name": "ATLANTIC MUNI",
            "country": "United States of America",
            "lat": 41.40383333333333,
            "lon": -95.04875
        },
        {
            "id": "KBNW",
            "name": "BOONE MUNI",
            "country": "United States of America",
            "lat": 42.04955555555556,
            "lon": -93.8476111111111
        },
        {
            "id": "KBRL",
            "name": "SOUTHEAST IOWA RGNL",
            "country": "United States of America",
            "lat": 40.78322222222222,
            "lon": -91.12549999999999
        },
        {
            "id": "KCIN",
            "name": "ARTHUR N NEU",
            "country": "United States of America",
            "lat": 42.04666666666667,
            "lon": -94.78869444444445
        }
    ]
}