{
    "status": "ok",
    "page": 143,
    "data": [
        {
            "id": "SVVA",
            "name": "VALENCIA",
            "country": "VEN",
            "lat": "Venezuela (Bolivarian Republic of)",
            "lon": 10.15
        },
        {
            "id": "SVVG",
            "name": "EL VIGIA",
            "country": "VEN",
            "lat": "Venezuela (Bolivarian Republic of)",
            "lon": 8.623611111111112
        },
        {
            "id": "SVVL",
            "name": "VALERA",
            "country": "VEN",
            "lat": "Venezuela (Bolivarian Republic of)",
            "lon": 9.340555555555556
        },
        {
            "id": "SOCA",
            "name": "CAYENNE-FELIX-EBOUE",
            "country": "France",
            "lat": 4.819722222222222,
            "lon": -52.36194444444445
        },
        {
            "id": "SYGO",
            "name": "OGLE INTERNATIONAL AIRPORT",
            "country": "Guyana",
            "lat": 6.805911111111111,
            "lon": -58.10760277777778
        },
        {
            "id": "SYCJ",
            "name": "CHEDDI JAGAN INTL AIRPORT",
            "country": "Guyana",
            "lat": 6.498927777777777,
            "lon": -58.254352777777775
        },
        {
            "id": "SEGU",
            "name": "GUAYAQUIL/AEROPUERTO INTERNACIONAL JOSE JOAQUIN DE OLMEDO",
            "country": "Ecuador",
            "lat": -2.1577777777777776,
            "lon": -79.88388888888889
        },
        {
            "id": "SELT",
            "name": "LATACUNGA/ALTERNATIVO COTOPAXI INTL",
            "country": "Ecuador",
            "lat": -0.9066666666666667,
            "lon": -78.61583333333333
        },
        {
            "id": "SEMT",
            "name": "MANTA/ELOY ALFARO INTL",
            "country": "Ecuador",
            "lat": -0.9461111111111111,
            "lon": -80.67888888888889
        },
        {
            "id": "SEQM",
            "name": "QUITO/MARISCAL SUCRE INTL",
            "country": "Ecuador",
            "lat": -0.12416666666666668,
            "lon": -78.35444444444444
        }
    ]
}