{
    "status": "ok",
    "page": 282,
    "data": [
        {
            "id": "OIIE",
            "name": "TEHRAN/IMAM KHOMAINI INTL",
            "country": "Iran (Islamic Republic of)",
            "lat": 35.41611111111111,
            "lon": 51.15222222222222
        },
        {
            "id": "OIMC",
            "name": "SARAKHS",
            "country": "Iran (Islamic Republic of)",
            "lat": 36.488055555555555,
            "lon": 61.07
        },
        {
            "id": "OISL",
            "name": "LAR",
            "country": "Iran (Islamic Republic of)",
            "lat": 27.673055555555557,
            "lon": 54.38722222222222
        },
        {
            "id": "OISY",
            "name": "YASOUJ",
            "country": "Iran (Islamic Republic of)",
            "lat": 30.696944444444444,
            "lon": 51.55
        },
        {
            "id": "OITM",
            "name": "MARAGHEH/SAHAND",
            "country": "Iran (Islamic Republic of)",
            "lat": 37.34805555555556,
            "lon": 46.13305555555556
        },
        {
            "id": "OJAI",
            "name": "AMMAN/QUEEN ALIA",
            "country": "Jordan",
            "lat": 31.722555555555555,
            "lon": 35.99321388888889
        },
        {
            "id": "OJAM",
            "name": "AMMAN/MARKA",
            "country": "Jordan",
            "lat": 31.972702777777776,
            "lon": 35.991569444444444
        },
        {
            "id": "OJAQ",
            "name": "AQABA/KING HUSSEIN",
            "country": "Jordan",
            "lat": 29.611616666666666,
            "lon": 35.01806388888889
        },
        {
            "id": "OKBK",
            "name": "KUWAIT/INTL AIRPORT",
            "country": "Kuwait",
            "lat": 29.226766666666666,
            "lon": 47.97995277777778
        },
        {
            "id": "OLBA",
            "name": "RAFFIC HARIRI INTL BEIRUT",
            "country": "Lebanon",
            "lat": 33.819050000000004,
            "lon": 35.490027777777776
        }
    ]
}