{
    "status": "ok",
    "page": 43,
    "data": [
        {
            "id": "KSDY",
            "name": "SIDNEY-RICHLAND MUNI",
            "country": "United States of America",
            "lat": 47.70686111111112,
            "lon": -104.19255555555556
        },
        {
            "id": "KOLF",
            "name": "L M CLAYTON",
            "country": "United States of America",
            "lat": 48.094500000000004,
            "lon": -105.57505555555555
        },
        {
            "id": "KWYS",
            "name": "YELLOWSTONE",
            "country": "United States of America",
            "lat": 44.68838888888889,
            "lon": -111.11763888888888
        },
        {
            "id": "KAVL",
            "name": "ASHEVILLE RGNL",
            "country": "United States of America",
            "lat": 35.43444444444444,
            "lon": -82.54272777777777
        },
        {
            "id": "KCLT",
            "name": "CHARLOTTE/DOUGLAS INTL",
            "country": "United States of America",
            "lat": 35.21373888888889,
            "lon": -80.94906666666667
        },
        {
            "id": "KNKT",
            "name": "CHERRY POINT MCAS/CUNNINGHAM FIELD",
            "country": "USA",
            "lat": "United States of America",
            "lon": 34.903169444444444
        },
        {
            "id": "KCTZ",
            "name": "CLINTON-SAMPSON COUNTY",
            "country": "United States of America",
            "lat": 34.97493888888889,
            "lon": -78.36562777777777
        },
        {
            "id": "KEDE",
            "name": "NORTHEASTERN RGNL",
            "country": "United States of America",
            "lat": 36.02773333333333,
            "lon": -76.56709166666667
        },
        {
            "id": "KECG",
            "name": "ELIZABETH CITY CG AIR STATION/RGNL",
            "country": "United States of America",
            "lat": 36.260580555555556,
            "lon": -76.17457222222222
        },
        {
            "id": "KFAY",
            "name": "FAYETTEVILLE RGNL/GRANNIS FIELD",
            "country": "United States of America",
            "lat": 34.99122222222222,
            "lon": -78.88027777777778
        }
    ]
}