{"status":"ok","page":133,"data":[{"id":"TVSV","name":"E.T.JOSHUA,"country": AND THE GRENADINES","lat":"VCT","lon":"Saint Vincent and the Grenadines"},{"id":"TBPB","name":"GRANTLEY ADAMS","country":"Barbados","lat":13.074722222222222,"lon":-59.492222222222225},{"id":"TGPY","name":"MAURICE BISHOP,"country":"GRD","lat":"Grenada","lon":12.004247222222222},{"id":"TRPG","name":"JOHN A. OSBORNE,"country":"GBR","lat":"United Kingdom of Great Britain and Northern Ireland","lon":16.79138888888889},{"id":"TTPP","name":"PIARCO,"country":"TTO","lat":"Trinidad and Tobago","lon":10.595277777777778},{"id":"TTCP","name":"A.N.R. ROBINSON,"country":"TTO","lat":"Trinidad and Tobago","lon":11.149722222222222},{"id":"TXKF","name":"L.F. WADE INTERNATIONAL AIRPORT","country":"United Kingdom of Great Britain and Northern Ireland","lat":32.364041666666665,"lon":-64.67870277777779},{"id":"MZBZ","name":"PHILIP S.W. GOLDSON INTERNATIONAL","country":"Belize","lat":17.539166666666667,"lon":-88.30833333333334},{"id":"MGCB","name":"COBAN","country":"Guatemala","lat":15.468833333333334,"lon":-90.40666666666667},{"id":"MGES","name":"ESQUIPULAS","country":"Guatemala","lat":14.5677778,"lon":-89.3261111}]}
