{
    "status": "ok",
    "page": 59,
    "data": [
        {
            "id": "KCMH",
            "name": "PORT COLUMBUS INTL",
            "country": "United States of America",
            "lat": 39.996944444444445,
            "lon": -82.89216666666667
        },
        {
            "id": "KOSU",
            "name": "OHIO STATE UNIVERSITY",
            "country": "United States of America",
            "lat": 40.07983055555556,
            "lon": -83.07315
        },
        {
            "id": "KDAY",
            "name": "JAMES M. COX DAYTON INTL",
            "country": "United States of America",
            "lat": 39.902249999999995,
            "lon": -84.21941666666667
        },
        {
            "id": "KMGY",
            "name": "DAYTON-WRIGHT BROTHERS",
            "country": "United States of America",
            "lat": 39.588972222222225,
            "lon": -84.22486111111111
        },
        {
            "id": "KDFI",
            "name": "DEFIANCE MEMORIAL",
            "country": "United States of America",
            "lat": 41.337500000000006,
            "lon": -84.42880555555556
        },
        {
            "id": "KFDY",
            "name": "FINDLAY",
            "country": "United States of America",
            "lat": 41.012027777777774,
            "lon": -83.66861111111112
        },
        {
            "id": "KHAO",
            "name": "BUTLER CO RGNL-HOGAN FIELD",
            "country": "United States of America",
            "lat": 39.36375,
            "lon": -84.52194444444444
        },
        {
            "id": "KAOH",
            "name": "LIMA ALLEN COUNTY",
            "country": "United States of America",
            "lat": 40.70747777777778,
            "lon": -84.02707777777778
        },
        {
            "id": "KMFD",
            "name": "MANSFIELD LAHM RGNL",
            "country": "United States of America",
            "lat": 40.82141666666667,
            "lon": -82.51663888888889
        },
        {
            "id": "KMNN",
            "name": "MARION MUNI",
            "country": "USA",
            "lat": "United States of America",
            "lon": 40.61625
        }
    ]
}